     2.11           OBSERVATION DATA    M (MIXED)           RINEX VERSION / TYPE
JPS2RIN v.2.0.112   Sergey Smirnov      20170626 120329 UTC PGM / RUN BY / DATE
Sergey Smirnov      Saint-Petersburg State University       OBSERVER / AGENCY
vost_0626n                                                  MARKER NAME
                    JAVAD                                   REC # / TYPE / VERS
  2765332.1835  1615597.8327  5497278.3855                  APPROX POSITION XYZ
-Unknown-           -Unknown-                               ANT # / TYPE
        0.0000        0.0000        0.0000                  ANTENNA: DELTA H/E/N
     1     1                                                WAVELENGTH FACT L1/2
     5    C1    P1    L1    D1    S1                        # / TYPES OF OBSERV
    30.000                                                  INTERVAL
  2017     6    26    11    23   30.0000000     GPS         TIME OF FIRST OBS
  2017     6    26    11    42    0.0000000     GPS         TIME OF LAST OBS
    18                                                      LEAP SECONDS
     7                                                      # OF SATELLITES
   G 2    38    38    38    38    38                        PRN / # OF OBS
   G 4    38    38    38    38    38                        PRN / # OF OBS
   G 5    36    35    35    36    33                        PRN / # OF OBS
   G12    38    38    38    38    38                        PRN / # OF OBS
   G25    38    38    38    38    38                        PRN / # OF OBS
   G29    38    38    38    38    38                        PRN / # OF OBS
   G31    38    38    38    38    38                        PRN / # OF OBS
                                                            END OF HEADER
 17  6 26 11 23 30.0000000  0  6G31G 4G29G25G 2G12                  -0.000073532
  21889867.990    21889867.570   115032032.885 6     -1132.646          36.750
  22808043.433    22808043.783   119857078.574 5      1325.695          30.500
  20323950.643    20323950.603   106803082.638 7       517.587          44.500
  20847455.269    20847453.849   109554120.905 6     -2656.171          41.500
  21813812.331    21813812.201   114632361.778 5     -2249.575          34.000
  23189643.368    23189643.598   121862408.072 5     -4413.656          33.750
 17  6 26 11 24  0.0000000  0  6G31G 4G29G25G 2G12                  -0.000058664
  21896263.378    21896263.328   115065639.731 6     -1121.710          38.500
  22800392.466    22800391.656   119816871.850 5      1340.929          31.500
  20320910.651    20320910.311   106787106.056 7       533.677          44.250
  20862536.877    20862536.017   109633375.849 7     -2641.250          42.750
  21826569.001    21826568.721   114699395.626 5     -2233.086          32.750
  23214730.310    23214729.070   121994238.148 5     -4388.890          33.250
 17  6 26 11 24 30.0000000  0  7G31G 4G29G25G 2G 5G12               -0.000044024
  21902705.591    21902704.551   115099493.670 6     -1135.632          38.500
  22792765.062    22792764.242   119776790.219 5      1331.036          30.250
  20317889.349    20317888.799   106771226.861 7       524.654          44.500
  20877643.023    20877642.843   109712760.552 7     -2651.341          43.500
  21839341.925    21839341.335   114766516.010 6     -2241.795          40.000
  23710350.205                                        2152.046
  23239785.623    23239784.713   122125902.321 4     -4389.108          29.000
 17  6 26 11 25  0.0000000  0  7G31G 4G29G25G 2G 5G12               -0.000029458
  21909235.458    21909235.068   115133808.741 6     -1152.280          38.250
  22785202.525    22785202.005   119737050.239 4      1318.306          29.750
  20314926.629    20314926.469   106755660.349 7       512.918          44.250
  20892814.845    20892814.545   109792488.167 7     -2664.023          44.500
  21852171.250    21852170.920   114833935.707 6     -2253.003          40.500
  23698087.267    23698083.357   124534352.543        2144.318
  23264849.133    23264849.293   122257612.994 4     -4391.916          28.000
 17  6 26 11 25 30.0000000  0  7G31G 4G29G25G 2G 5G12               -0.000014979
  21915864.903    21915864.683   115168645.756 6     -1170.514          38.250
  22777717.978    22777715.498   119697715.122 4      1303.797          28.250
  20312035.817    20312035.177   106740467.955 7       499.594          44.250
  20908063.291    20908062.681   109872618.529 7     -2678.274          44.000
  21865069.682    21865068.912   114901714.316 6     -2265.835          41.250
  23685871.704    23685869.754   124470152.835        2135.405
  23289932.399    23289932.419   122389429.458 4     -4396.249          27.750
 17  6 26 11 26  0.0000000  0  7G31G 4G29G25G 2G 5G12               -0.000000516
  21922599.132    21922598.442   115204035.538 6     -1188.618          37.500
  22770315.587    22770314.987   119658818.726 4      1289.392          27.250
  20309221.536    20309221.546   106725681.896 7       486.375          43.750
  20923394.434    20923393.494   109953181.892 7     -2692.427          43.500
  21878040.629    21878040.129   114969881.909 6     -2278.469          40.500
  23673708.666    23673708.766   124406236.286 1      2126.071           3.750
  23315041.388    23315041.608   122521381.494 4     -4400.335          28.250
 17  6 26 11 26 30.0000000  0  7G31G 4G29G25G 2G 5G12                0.000013942
  21929442.249    21929441.629   115239996.913 6     -1208.328          37.000
  22763002.449    22763002.359   119620382.203 4      1273.467          29.250
  20306489.588    20306489.188   106711322.016 7       471.437          44.500
  20938810.575    20938809.565   110034196.201 7     -2708.096          42.750
  21891089.677    21891089.097   115038456.091 6     -2292.673          39.750
  23661605.699    23661604.959   124342625.217 2      2115.096          12.000
  23340181.054    23340180.774   122653486.566 4     -4406.125          28.500
 17  6 26 11 27  0.0000000  0  7G31G 4G29G25G 2G 5G12                0.000028360
  21936398.238    21936397.568   115276550.993 5     -1228.190          35.250
  22755779.268    22755778.328   119582429.563 4      1257.186          29.250
  20303842.211    20303841.671   106697410.750 7       456.393          44.750
  20954317.064    20954316.344   110115681.997 7     -2723.831          43.250
  21904220.260    21904219.200   115107457.121 6     -2306.993          40.000
  23649564.652    23649561.632   124279344.049 2      2103.955          14.000
  23365352.669    23365352.649   122785764.677 4     -4411.928          27.250
 17  6 26 11 27 30.0000000  0  7G31G 4G29G25G 2G 5G12                0.000042792
  21943467.748    21943467.898   115313701.804 6     -1248.908          36.500
  22748651.249    22748650.629   119544967.609 5      1240.034          30.000
  20301281.203    20301281.303   106683953.398 7       440.386          44.750
  20969913.416    20969912.736   110197642.425 7     -2740.553          43.000
  21917432.290    21917431.760   115176887.998 6     -2322.117          39.000
  23637582.853    23637581.853   124216400.616 2      2092.078          13.500
  23390557.651    23390556.401   122918218.596 4     -4418.615          27.000
 17  6 26 11 28  0.0000000  0  7G31G 4G29G25G 2G 5G12                0.000057230
  21950654.544    21950653.934   115351464.709 6     -1268.544          38.000
  22741618.592    22741618.532   119508014.379 4      1223.697          29.750
  20298810.128    20298809.828   106670965.990 7       425.412          44.500
  20985603.045    20985602.395   110280092.044 7     -2756.083          43.250
  21930729.201    21930729.141   115246763.219 6     -2336.225          39.000
  23625675.795    23625671.755   124153813.467 1      2080.597          10.750
  23415798.668    23415798.368   123050862.158 4     -4424.200          27.000
 17  6 26 11 28 30.0000000  0  7G31G 4G29G25G 2G 5G12                0.000071672
  21957955.878    21957955.888   115389836.645 6     -1289.401          38.000
  22734683.739    22734683.539   119471569.444 5      1206.074          30.000
  20296427.755    20296427.465   106658446.890 7       409.223          45.000
  21001385.146    21001384.196   110363027.181 7     -2772.796          42.750
  21944110.551    21944109.631   115317078.683 6     -2351.413          39.250
  23613838.109    23613828.659   124091583.297 2      2068.260          12.250
  23441075.780    23441074.520   123183691.289 4     -4430.896          27.500
 17  6 26 11 29  0.0000000  0  7G31G 4G29G25G 2G 5G12                0.000086123
  21965375.232    21965374.722   115428825.134 5     -1309.834          35.750
  22727847.449    22727845.639   119435642.709 5      1188.976          30.000
  20294136.628    20294136.218   106646404.620 7       393.471          45.000
  21017260.757    21017260.027   110446454.474 7     -2789.046          43.250
  21957575.670    21957574.830   115387840.609 6     -2366.116          39.500
  23602059.599    23602060.739   124029721.212 1      2056.131          11.250
  23466389.248    23466387.728   123316712.012 4     -4437.256          28.250
 17  6 26 11 29 30.0000000  0  7G31G 4G29G25G 2G 5G12                0.000100589
  21972913.049    21972913.379   115468436.939 6     -1330.994          36.750
  22721111.433    22721109.533   119400244.035 5      1170.940          30.000
  20291936.589    20291936.639   106634847.312 7       376.968          45.250
  21033231.790    21033230.480   110530380.171 7     -2805.979          43.500
  21971127.518    21971127.018   115459055.196 6     -2381.482          40.000
  23590360.681    23590359.101   123968237.677 2      2043.134          13.750
  23491739.089    23491739.269   123449930.215 4     -4443.958          26.750
 17  6 26 11 30  0.0000000  0  7G31G 4G29G25G 2G 5G12                0.000115066
  21980568.357    21980568.667   115508666.865 6     -1351.638          37.000
  22714474.127    22714473.217   119365371.065 4      1153.281          29.500
  20289828.916    20289828.696   106623770.784 7       360.866          44.750
  21049295.752    21049295.002   110614798.148 7     -2822.451          43.500
  21984764.094    21984763.714   115530715.984 6     -2396.498          40.000
  23578733.360    23578734.730   123907130.741 1      2030.268          10.750
  23517126.273    23517127.783   123583339.565 4     -4450.411          28.000
 17  6 26 11 30 30.0000000  0  7G31G 4G29G25G 2G 5G12                0.000129565
  21988344.095    21988343.905   115549527.251 6     -1373.063          36.750
  22707942.426    22707941.436   119331039.036 5      1134.859          31.000
  20287814.904    20287814.744   106613188.952 7       343.916          43.750
  21065456.181    21065455.651   110699720.435 7     -2839.772          44.250
  21998488.128    21998487.278   115602834.872 6     -2412.149          40.250
  23567179.562    23567177.432   123846416.680 2      2016.887          13.750
  23542551.417    23542551.457   123716951.516 4     -4457.622          27.250
 17  6 26 11 31  0.0000000  0  7G31G 4G29G25G 2G 5G12                0.000144080
  21996239.276    21996239.596   115591017.151 5     -1393.296          35.250
  22701512.150    22701511.310   119297249.413 5      1117.428          31.750
  20285895.905    20285895.655   106603101.800 7       328.144          44.250
  21081712.178    21081711.088   110785145.160 7     -2855.710          44.000
  22012298.313    22012297.983   115675409.865 6     -2426.591          40.750
  23555699.738    23555696.838   123786098.065 2      2004.163          13.750
  23568016.106    23568016.136   123850763.575 4     -4463.548          27.000
 17  6 26 11 31 30.0000000  0  7G31G 4G29G25G 2G 5G12                0.000158612
  22004252.624    22004252.474   115633128.115 5     -1414.217          34.250
  22695184.788    22695183.788   119263996.562 5      1099.321          32.000
  20284068.976    20284068.776   106593502.244 7       311.734          44.250
  21098061.180    21098060.400   110871063.229 7     -2872.228          43.000
  22026194.224    22026193.724   115748431.491 6     -2441.602          40.750
  23544296.740    23544295.030   123726170.243 2      1990.862          16.500
  23593515.637    23593515.357   123984766.454 4     -4470.035          27.500
 17  6 26 11 32  0.0000000  0  7G31G 4G29G25G 2G 5G12                0.000173161
  22012385.852    22012385.882   115675864.122 5     -1435.265          34.750
  22688959.501    22688957.561   119231287.346 5      1080.837          30.750
  20282335.828    20282335.738   106584395.659 7       295.034          43.500
  21114505.381    21114504.891   110957478.156 7     -2889.084          42.250
  22040175.120    22040174.390   115821903.296 6     -2456.849          39.500
  23532965.349    23532966.169   123666641.080 2      1977.514          15.250
  23619051.617    23619050.737   124118963.384 4     -4476.759          28.000
 17  6 26 11 32 30.0000000  0  7G31G 4G29G25G 2G 5G12                0.000187733
  22020638.704    22020638.254   115719231.973 5     -1455.989          34.250
  22682840.221    22682839.871   119199131.167 4      1062.803          29.250
  20280698.314    20280698.284   106575789.823 7       278.637          44.250
  21131045.297    21131044.567   111044395.892 7     -2905.502          42.250
  22054242.971    22054242.461   115895830.749 6     -2471.706          39.500
  23521720.206    23521720.236   123607520.865 2      1963.961          17.000
  23644626.423    23644627.483   124253359.634 4     -4483.115          27.500
 17  6 26 11 33  0.0000000  0  7G31G 4G29G25G 2G 5G12                0.000202321
  22029009.221    22029009.691   115763220.753 5     -1476.721          32.000
  22676825.063    22676824.113   119167519.853 5      1044.442          30.250
  20279154.065    20279154.075   106567675.191 7       262.323          44.000
  21147678.802    21147678.482   111131804.898 7     -2921.786          43.250
  22068396.029    22068394.839   115970202.096 6     -2486.348          39.500
  23510543.541    23510544.141   123548802.305 3      1950.562          20.750
  23670236.913    23670236.793   124387943.171 4     -4489.212          26.000
 17  6 26 11 33 30.0000000  0  7G31G 4G29G25G 2G 5G12                0.000216932
  22037500.696    22037500.336   115807842.733 5     -1497.747          33.250
  22670915.668    22670915.028   119136468.604 5      1025.827          30.500
  20277705.902    20277705.962   106560065.558 7       245.494          44.250
  21164408.111    21164407.421   111219716.963 7     -2938.486          42.500
  22082634.684    22082633.534   116045028.975 6     -2501.529          38.750
  23499450.762    23499449.752   123490501.590 3      1936.556          19.750
  23695884.242    23695886.472   124522725.436 4     -4495.812          26.250
 17  6 26 11 34  0.0000000  0  7G31G 4G29G25G 2G 5G12                0.000231565
  22046110.768    22046111.078   115853092.019 5     -1518.653          34.750
  22665112.474    22665111.414   119105974.192 4      1007.361          29.750
  20276353.200    20276352.980   106552956.086 7       228.760          45.500
  21181231.199    21181230.659   111308125.467 7     -2955.116          42.750
  22096959.475    22096958.185   116120304.585 6     -2516.542          38.750
  23488435.266    23488436.006   123432616.553 3      1922.745          18.500
  23721570.031    23721569.061   124657699.764 4     -4502.176          26.000
 17  6 26 11 34 30.0000000  0  7G31G 4G29G25G 2G 5G12                0.000246223
  22054841.507    22054841.737   115898973.673 5     -1539.702          35.250
  22659417.587    22659416.847   119076044.747 5       988.414          30.750
  20275096.689    20275096.319   106546353.066 7       211.886          44.500
  21198150.313    21198149.513   111397034.756 7     -2971.741          42.500
  22111370.172    22111368.922   116196032.991 6     -2531.663          38.250
  23477501.202    23477499.622   123375155.559 3      1908.516          21.750
  23747292.020    23747292.710   124792869.988 4     -4508.597          26.500
 17  6 26 11 35  0.0000000  0  7G31G 4G29G25G 2G 5G12                0.000260902
  22063692.936    22063692.316   115945480.620 5     -1560.804          34.750
  22653829.455    22653828.495   119046676.270 5       969.448          33.000
  20273935.586    20273935.396   106540251.203 7       194.884          44.500
  21215163.355    21215162.335   111486437.589 7     -2988.433          43.000
  22125864.595    22125864.235   116272207.006 6     -2546.676          38.000
  23466646.979    23466647.319   123318116.557 3      1894.034          19.250
  23773050.709    23773049.789   124928228.817 4     -4515.302          27.000
 17  6 26 11 35 30.0000000  0  7G31G 4G29G25G 2G 5G12                0.000275603
  22072661.479    22072660.509   115992614.940 5     -1581.357          35.000
  22648348.617    22648347.787   119017873.349 5       950.986          33.500
  20272870.352    20272870.452   106534653.576 7       178.489          44.750
  21232270.130    21232269.820   111576335.140 7     -3004.493          42.000
  22140445.591    22140444.891   116348827.452 6     -2561.136          37.500
  23455874.309    23455870.229   123261503.981 3      1880.060          18.000
  23798843.692    23798844.482   125063776.841 4     -4521.158          26.500
 17  6 26 11 36  0.0000000  0  7G31G 4G29G25G 2G 5G12                0.000290324
  22081748.408    22081749.708   116040372.290 5     -1602.238          33.750
  22642974.666    22642973.686   118989634.410 5       931.936          33.250
  20271900.364    20271900.414   106529557.370 7       161.615          44.500
  21249470.480    21249469.480   111666722.630 7     -3020.948          42.000
  22155109.886    22155108.896   116425889.311 6     -2575.961          38.250
  23445179.534    23445183.464   123205318.048 2      1866.016          17.750
  23824673.055    23824672.625   125199508.666 4     -4527.329          25.750
 17  6 26 11 36 30.0000000  0  7G31G 4G29G25G 2G 5G12                0.000305067
  22090956.245    22090955.875   116088751.804 5     -1622.862          33.750
  22637708.973    22637708.193   118961961.723 5       913.107          33.750
  20271026.361    20271026.261   106524963.027 7       144.923          45.250
  21266763.486    21266762.686   111757598.706 6     -3037.171          41.500
  22169857.795    22169857.685   116503391.029 6     -2590.565          38.500
  23434572.568    23434572.618   123149561.605 3      1851.520          20.250
  23850537.380    23850537.120   125335423.015 4     -4533.351          24.500
 17  6 26 11 37  0.0000000  0  7G31G 4G29G25G 2G 5G12                0.000319831
  22100279.668    22100280.578   116137752.876 5     -1643.945          30.500
  22632550.777    22632549.797   118934857.587 5       893.793          34.500
  20270247.809    20270247.539   106520871.387 7       127.800          46.000
  21284149.302    21284148.422   111848962.316 7     -3053.759          42.250
  22184689.880    22184688.940   116581331.561 6     -2605.539          39.250
  23424043.476    23424041.946   123094237.840 3      1836.769          19.750
  23876435.278    23876434.838   125471518.703 3     -4539.730          23.750
 17  6 26 11 37 30.0000000  0  7G31G 4G29G25G 2G 5G12                0.000334614
  22109722.201    22109722.041   116187374.516 4     -1664.270          28.000
  22627501.109    22627500.349   118908323.463 5       875.131          33.250
  20269564.966    20269564.606   106517282.853 7       111.358          45.500
  21301627.757    21301627.247   111940811.858 7     -3069.614          42.750
  22199604.683    22199603.823   116659708.839 6     -2619.731          39.000
  23413598.821    23413598.541   123039349.555 3      1822.498          22.250
  23902368.740    23902367.290   125607793.458 4     -4545.285          25.250
 17  6 26 11 38  0.0000000  0  7G31G 4G29G25G 2G 5G12                0.000349435
  22119283.680    22119282.680   116237617.321 5     -1685.254          30.000
  22622561.381    22622561.051   118882362.813 5       855.698          33.250
  20268978.299    20268978.029   106514199.415 7        94.245          45.500
  21319198.818    21319197.848   112033147.254 7     -3086.030          42.500
  22214603.102    22214601.652   116738522.748 6     -2634.515          39.250
  23403237.775    23403237.995   122984901.694 3      1807.473          22.750
  23928334.353    23928333.953   125744247.056 4     -4551.503          24.750
 17  6 26 11 38 30.0000000  0  7G31G 4G29G25G 2G 5G12                0.000364248
  22128963.169    22128962.299   116288481.180 5     -1705.288          32.000
  22617731.430    22617729.930   118856978.767 5       836.956          34.000
  20268487.743    20268487.653   106511622.468 7        77.907          45.250
  21336862.068    21336861.218   112125967.989 7     -3101.675          42.000
  22229683.077    22229682.327   116817772.679 6     -2648.470          39.000
  23392961.273    23392959.273   122930897.437 3      1793.152          22.750
  23954335.299    23954333.349   125880878.913 4     -4556.808          24.750
 17  6 26 11 39  0.0000000  0  7G31G 4G29G25G 2G 5G12                0.000379093
  22138757.841    22138757.801   116339957.215 5     -1725.733          31.500
  22613008.983    22613008.763   118832165.423 5       817.891          35.250
  20268092.482    20268091.992   106509544.716 7        61.251          45.500
  21354615.465    21354615.185   112219264.786 6     -3117.491          41.250
  22244844.942    22244844.042   116897449.064 6     -2662.671          38.250
  23382767.490    23382765.860   122877331.927 3      1778.497          21.000
  23980366.545    23980365.485   126017679.112 4     -4562.581          25.000
 17  6 26 11 39 30.0000000  0  7G31G 4G29G25G 2G 5G12                0.000393952
  22148667.894    22148667.714   116392039.490 5     -1746.580          30.500
  22608396.001    22608394.131   118807919.581 6       798.336          36.500
  20267790.941    20267790.951   106507961.281 7        44.147          45.250
  21372458.978    21372458.228   112313031.044 6     -3133.774          41.750
  22260087.128    22260086.188   116977545.430 6     -2677.245          38.000
  23372657.925    23372658.005   122824203.246 3      1763.241          19.500
  24006429.428    24006430.188   126154641.037 4     -4568.504          24.500
 17  6 26 11 40  0.0000000  0  7G31G 4G29G25G 2G 5G12                0.000408829
  22158696.204    22158695.654   116444733.081 5     -1766.513          31.000
  22603891.464    22603890.024   118784249.156 5       779.526          35.750
  20267585.395    20267584.895   106506878.806 7        27.866          45.500
  21390391.828    21390391.738   112407271.488 6     -3149.145          41.750
  22275409.293    22275408.523   117058066.223 6     -2690.990          38.000
  23362633.096    23362632.516   122771520.328 4      1748.707          24.250
  24032524.020    24032525.330   126291769.124 4     -4573.513          24.000
 17  6 26 11 40 30.0000000  0  7G31G 4G29G25G 2G 5G12                0.000423724
  22168838.321    22168838.541   116498034.314 5     -1787.366          32.500
  22599495.811    22599495.561   118761153.103 6       759.744          36.000
  20267474.073    20267474.143   106506295.061 7        10.599          46.250
  21408414.970    21408414.290   112501981.790 7     -3165.373          42.000
  22290811.343    22290811.353   117139006.715 6     -2705.506          37.750
  23352692.373    23352690.283   122719283.084 3      1733.292          23.750
  24058649.724    24058647.924   126429058.768 4     -4579.591          24.250
 17  6 26 11 41  0.0000000  0  7G31G 4G29G25G 2G 5G12                0.000438639
  22179099.467    22179099.517   116551949.521 5     -1807.473          33.500
  22595211.917    22595211.597   118738641.203 5       740.524          35.750
  20267459.677    20267459.387   106506218.102 7        -5.941          46.500
  21426528.409    21426528.229   112597168.381 6     -3180.859          41.750
  22306295.354    22306294.214   117220373.430 6     -2719.329          38.000
  23342838.177    23342838.657   122667502.409 4      1718.486          25.000
  24084808.112    24084807.072   126566516.178 4     -4584.638          24.250
 17  6 26 11 41 30.0000000  0  7G31G 4G29G25G 2G 5G12                0.000453566
  22189472.538    22189472.408   116606462.891 5     -1826.820          33.500
  22591037.026    22591037.326   118716700.175 5       722.060          32.500
  20267538.120    20267538.340   106506633.291 7       -21.833          46.250
  21444729.556    21444728.776   112692814.482 7     -3195.603          42.250
  22321857.374    22321856.494   117302149.488 6     -2732.423          38.250
  23333068.592    23333068.992   122616165.718 4      1704.075          24.250
  24110993.383    24110993.733   126704124.676 3     -4589.064          22.250
 17  6 26 11 42  0.0000000  0  7G31G 4G29G25G 2G 5G12                0.000468508
  22199960.567    22199959.837   116661576.815 5     -1847.080          35.250
  22586972.352    22586970.462   118695335.850 5       702.651          32.250
  20267712.018    20267712.018   106507545.442 7       -38.600          46.500
  21463018.526    21463017.346   112788922.681 7     -3211.226          42.250
  22337496.752    22337496.302   117384337.129 6     -2746.357          37.750
  23323385.661    23323386.911   122565280.355 4      1688.591          24.750
  24137207.604    24137208.674   126841886.912 3     -4594.504          22.500
